{"stalls":[{"id":"49","name":"Meda","latitude":45.46646843499973,"longitude":9.192995131015778,"availableBikes":8,"docks":22,"percentageOfAvailableBikes":0.6363636363636364},{"id":"80","name":"Manzoni","latitude":45.47119357128121,"longitude":9.192473441362381,"availableBikes":6,"docks":22,"percentageOfAvailableBikes":0.7272727272727273},{"id":"39","name":"XXV Aprile","latitude":45.48018189895174,"longitude":9.186678528785706,"availableBikes":16,"docks":23,"percentageOfAvailableBikes":0.30434782608695654},{"id":"77","name":"Sant\u0027Angelo - P.ta Nuova","latitude":45.47657470301445,"longitude":9.191769361495972,"availableBikes":13,"docks":22,"percentageOfAvailableBikes":0.40909090909090906},{"id":"62","name":"Treves","latitude":45.475071950022084,"longitude":9.186791181564331,"availableBikes":15,"docks":24,"percentageOfAvailableBikes":0.375},{"id":"75","name":"Cusani","latitude":45.46881224239496,"longitude":9.185059815645218,"availableBikes":10,"docks":24,"percentageOfAvailableBikes":0.5833333333333333},{"id":"16","name":"Moscova","latitude":45.477533886098854,"longitude":9.18455958366394,"availableBikes":23,"docks":24,"percentageOfAvailableBikes":0.04166666666666663},{"id":"74","name":"Dante - San Tomaso","latitude":45.467059098697085,"longitude":9.184052646160126,"availableBikes":5,"docks":14,"percentageOfAvailableBikes":0.6428571428571428},{"id":"46","name":"Porta Nuova ","latitude":45.479943056307675,"longitude":9.192852973937988,"availableBikes":18,"docks":24,"percentageOfAvailableBikes":0.25},{"id":"57","name":"Brera","latitude":45.47213027497706,"longitude":9.187526106834412,"availableBikes":1,"docks":24,"percentageOfAvailableBikes":0.9583333333333334},{"id":"70","name":"Fatebenefratelli","latitude":45.47312903225014,"longitude":9.189996421337128,"availableBikes":16,"docks":30,"percentageOfAvailableBikes":0.4666666666666667},{"id":"98","name":"San Marco","latitude":45.47869334738277,"longitude":9.189179688692093,"availableBikes":11,"docks":22,"percentageOfAvailableBikes":0.5},{"id":"100","name":"Palazzo Marino","latitude":45.4669311847908,"longitude":9.1915225982666,"availableBikes":7,"docks":36,"percentageOfAvailableBikes":0.8055555555555556}]}