{"stalls":[{"id":"158","name":"Naviglio G.Valenza ","latitude":45.4498182024788,"longitude":9.16759729385375,"availableBikes":33,"docks":33,"percentageOfAvailableBikes":0.0},{"id":"167","name":"Foppa - Caravaggio","latitude":45.45728037226757,"longitude":9.159545302391052,"availableBikes":14,"docks":35,"percentageOfAvailableBikes":0.6},{"id":"163","name":"Rosario","latitude":45.454933263175874,"longitude":9.16284441947937,"availableBikes":33,"docks":35,"percentageOfAvailableBikes":0.05714285714285716},{"id":"87","name":"Porta Genova","latitude":45.45297553954859,"longitude":9.169653207063675,"availableBikes":14,"docks":26,"percentageOfAvailableBikes":0.46153846153846156},{"id":"164","name":"Bergognone - Tortona","latitude":45.4524016624621,"longitude":9.16502773761749,"availableBikes":7,"docks":30,"percentageOfAvailableBikes":0.7666666666666666},{"id":"161","name":"Coni Zugna Solari","latitude":45.4570790609292,"longitude":9.16801035404205,"availableBikes":26,"docks":36,"percentageOfAvailableBikes":0.2777777777777778}]}