{"stalls":[{"id":"140","name":"Cirene - Friuli","latitude":45.45348543855227,"longitude":9.212516248226166,"availableBikes":9,"docks":24,"percentageOfAvailableBikes":0.625},{"id":"141","name":"Caldara / Curtatone ","latitude":45.455107300670235,"longitude":9.202954173088074,"availableBikes":13,"docks":24,"percentageOfAvailableBikes":0.45833333333333337},{"id":"105","name":"Piazzale Lodi","latitude":45.447741752471345,"longitude":9.2098568379879,"availableBikes":26,"docks":33,"percentageOfAvailableBikes":0.21212121212121215},{"id":"146","name":"Crema - Giulio Romano","latitude":45.4480098982521,"longitude":9.2027395963669,"availableBikes":28,"docks":30,"percentageOfAvailableBikes":0.06666666666666665},{"id":"147","name":"Ripamonti Bellezza  ","latitude":45.4487691672851,"longitude":9.1972330212593,"availableBikes":25,"docks":26,"percentageOfAvailableBikes":0.038461538461538436},{"id":"206","name":"Friuli","latitude":45.454779921587104,"longitude":9.213594496250153,"availableBikes":19,"docks":36,"percentageOfAvailableBikes":0.4722222222222222},{"id":"89","name":"Patellani","latitude":45.45107419653046,"longitude":9.194192737340927,"availableBikes":23,"docks":24,"percentageOfAvailableBikes":0.04166666666666663},{"id":"22","name":"Medaglie D\u0027Oro 1","latitude":45.45159634313007,"longitude":9.203495979309082,"availableBikes":16,"docks":21,"percentageOfAvailableBikes":0.23809523809523814},{"id":"139","name":"Lazio - Vasari - Morosini","latitude":45.45533213750292,"longitude":9.20820727944374,"availableBikes":30,"docks":30,"percentageOfAvailableBikes":0.0},{"id":"143","name":"Lodi - Papi","latitude":45.450115503972064,"longitude":9.206772297620773,"availableBikes":17,"docks":20,"percentageOfAvailableBikes":0.15000000000000002},{"id":"88","name":"Beatrice d\u0027Este - Cassolo","latitude":45.45222855740771,"longitude":9.197477102279663,"availableBikes":21,"docks":23,"percentageOfAvailableBikes":0.08695652173913049},{"id":"135","name":"Muratori - Umbria","latitude":45.4508098285709,"longitude":9.21250283718109,"availableBikes":26,"docks":30,"percentageOfAvailableBikes":0.1333333333333333},{"id":"71","name":"Medaglie D\u0027Oro 2","latitude":45.45186352979063,"longitude":9.202967584133148,"availableBikes":14,"docks":18,"percentageOfAvailableBikes":0.2222222222222222}]}