{"stalls":[{"id":"116","name":"Morgagni Redi ","latitude":45.4779250776498,"longitude":9.21183228492736,"availableBikes":21,"docks":24,"percentageOfAvailableBikes":0.125},{"id":"211","name":"Bernini","latitude":45.4788240556337,"longitude":9.221670627593994,"availableBikes":15,"docks":27,"percentageOfAvailableBikes":0.4444444444444444},{"id":"126","name":"Modena - Castel Morrone","latitude":45.47086064272376,"longitude":9.21578049659729,"availableBikes":31,"docks":35,"percentageOfAvailableBikes":0.11428571428571432},{"id":"212","name":"Verrocchio - Juvara","latitude":45.4733133583997,"longitude":9.21965897083282,"availableBikes":19,"docks":36,"percentageOfAvailableBikes":0.4722222222222222},{"id":"109","name":"Tunisia Lecco Bellintani","latitude":45.4774342070483,"longitude":9.20493096113204,"availableBikes":8,"docks":28,"percentageOfAvailableBikes":0.7142857142857143},{"id":"213","name":"Novelli - Carnaghi","latitude":45.4707966901203,"longitude":9.22038316726684,"availableBikes":17,"docks":35,"percentageOfAvailableBikes":0.5142857142857142},{"id":"118","name":"VIII novembre ","latitude":45.47486882138668,"longitude":9.211100041866302,"availableBikes":29,"docks":34,"percentageOfAvailableBikes":0.1470588235294118},{"id":"27","name":"Porta Venezia","latitude":45.47466193035721,"longitude":9.204601049423218,"availableBikes":18,"docks":23,"percentageOfAvailableBikes":0.21739130434782605},{"id":"108","name":"Tunisia - Cozzi","latitude":45.479001780754636,"longitude":9.201482981443405,"availableBikes":8,"docks":27,"percentageOfAvailableBikes":0.7037037037037037},{"id":"52","name":"Vittor Pisani","latitude":45.480595639718636,"longitude":9.199357330799103,"availableBikes":19,"docks":24,"percentageOfAvailableBikes":0.20833333333333337},{"id":"53","name":"Palestro 1","latitude":45.472414292499735,"longitude":9.201567471027374,"availableBikes":6,"docks":23,"percentageOfAvailableBikes":0.7391304347826086},{"id":"123","name":"Castel Morrone - M. A. Di Savoia","latitude":45.47262307267978,"longitude":9.214619100093842,"availableBikes":7,"docks":29,"percentageOfAvailableBikes":0.7586206896551724},{"id":"67","name":"Repubblica","latitude":45.479388260431904,"longitude":9.197471737861633,"availableBikes":6,"docks":23,"percentageOfAvailableBikes":0.7391304347826086},{"id":"124","name":"Porta Venezia 2","latitude":45.47518950098126,"longitude":9.204680174589157,"availableBikes":14,"docks":31,"percentageOfAvailableBikes":0.5483870967741935},{"id":"73","name":"Majno - Baretti","latitude":45.47147195071223,"longitude":9.205006062984467,"availableBikes":9,"docks":24,"percentageOfAvailableBikes":0.625},{"id":"56","name":"Bastioni di Porta Venezia","latitude":45.475942761707664,"longitude":9.20055091381073,"availableBikes":7,"docks":23,"percentageOfAvailableBikes":0.6956521739130435},{"id":"66","name":"Cavour","latitude":45.47299172768571,"longitude":9.196382761001587,"availableBikes":3,"docks":26,"percentageOfAvailableBikes":0.8846153846153846},{"id":"113","name":"Buenos Aires - Lima","latitude":45.4801969441237,"longitude":9.21108528971672,"availableBikes":5,"docks":24,"percentageOfAvailableBikes":0.7916666666666666},{"id":"59","name":"Palestro 2","latitude":45.47224689161652,"longitude":9.201902747154236,"availableBikes":16,"docks":24,"percentageOfAvailableBikes":0.33333333333333337},{"id":"111","name":"B.Marcello - Boscovich","latitude":45.480199765093,"longitude":9.20751929283142,"availableBikes":29,"docks":33,"percentageOfAvailableBikes":0.12121212121212122},{"id":"32","name":"Manin - Bastioni","latitude":45.47685117510771,"longitude":9.198283106088638,"availableBikes":14,"docks":29,"percentageOfAvailableBikes":0.5172413793103448},{"id":"110","name":"S. F. Romana","latitude":45.47641201642088,"longitude":9.208573400974274,"availableBikes":21,"docks":31,"percentageOfAvailableBikes":0.32258064516129037}]}