{"stalls":[{"id":"14","name":"San Barnaba H Mangiagalli","latitude":45.45950603757711,"longitude":9.198394417762756,"availableBikes":2,"docks":18,"percentageOfAvailableBikes":0.8888888888888888},{"id":"82","name":"Dell\u0027Umanitaria","latitude":45.45807432212791,"longitude":9.200611263513565,"availableBikes":1,"docks":24,"percentageOfAvailableBikes":0.9583333333333334},{"id":"72","name":"Cardinal Ferrari","latitude":45.45660682310024,"longitude":9.19266790151596,"availableBikes":18,"docks":19,"percentageOfAvailableBikes":0.052631578947368474},{"id":"43","name":"Festa del Perdono","latitude":45.46143437477778,"longitude":9.194851219654083,"availableBikes":8,"docks":24,"percentageOfAvailableBikes":0.6666666666666667},{"id":"30","name":"Crocetta","latitude":45.45614587001081,"longitude":9.195739030838013,"availableBikes":4,"docks":18,"percentageOfAvailableBikes":0.7777777777777778},{"id":"44","name":"Richini","latitude":45.45936869982655,"longitude":9.192933440208435,"availableBikes":9,"docks":23,"percentageOfAvailableBikes":0.6086956521739131},{"id":"69","name":"S. Nazaro in Brolo","latitude":45.45832642709111,"longitude":9.192578047513962,"availableBikes":6,"docks":23,"percentageOfAvailableBikes":0.7391304347826086}]}